[
    {
        "name": "First tree",
        "lat": 49.23149891808389,
        "lng": 28.458280563354496,
        "radius": 5
    },
    {
        "name": "Second tree",
        "lat": 49.231554965864156,
        "lng": 28.429269790649418,
        "radius": 6
    },
    {
        "name": "Third tree",
        "lat": 49.228472243520194,
        "lng": 28.448753356933597,
        "radius": 4
    },
    {
        "name": "Forth tree",
        "lat": 49.24578904279439,
        "lng": 28.462743759155277,
        "radius": 3
    },
    {
        "name": "Fifth tree",
        "lat": 49.22376371452274,
        "lng": 28.478965759277347,
        "radius": 2
    }
]